hotelId,Hotel_name,Address,Latitude,Longitude,Property_type,Room_status,Price,Currency,Rating,Final_rating
OIBLR3PG,TEST4,MARATHALLI,12.95677,77.70119,hotel,Available,140.00,INR,,4.04
OIBLRBLR,TEST2,BELLANDUR,12.95388,77.68965,hotel,Available,100.00,INR,,3.95
OIBLRRIU,GINGER,HOSUR,12.90676,77.62927,hotel,Available,40.00,INR,,4.0
OIBLRRQ4,GINGER,BELLANDUR,12.95388,77.68965,hotel,Available,40.00,INR,,3.98
OIBLRV9A,ENCORE,BELLANDUR,12.95388,77.68965,hotel,Available,200.00,INR,,3.95
OIBLRZHR,RIVER TEST,RT NAGAR,13.01321,77.59358,hotel,Available,200.00,INR,,4.05
SIBLR110,Sheraton Grand Bangalore Hotel at Brigade Gateway,26 1 DR RAJKUMAR ROAD | MALLESWARAM RAJAJINAGAR,13.01241,77.55506,hotel,Available,35220.64,INR,,3.95
OIBLR7OR,BLLOMS,BELLANDUR,12.95388,77.68965,hotel,Available,200.00,INR,,4.03
